,County,Latitude,Longitude
Fulton,"Fulton, GA",34.0580391,-84.2961283
DeKalb,"DeKalb, GA",33.7575613,-84.2186508
Gwinnett,"Gwinnett, GA",33.9566869,-84.0227467
Cobb,"Cobb, GA",33.9373948,-84.5732006
Clayton,"Clayton, GA",33.5204959,-84.3591713
Coweta,"Coweta, GA",33.3500656,-84.7545734
Douglas,"Douglas, GA",33.6995565,-84.7622973
Fayette,"Fayette, GA",33.3899269,-84.4953763
Henry,"Henry, ,GA",33.4519942,-84.1367771
